[
  {
    "id": 1,
    "name": "GO! freinetschool De Pluim",
    "address": "Pauwenlaan 55 - 2660 Hoboken",
    "type": "School",
    "masterType": "Ignore",
    "icon": "dePluim",
    "latitude": 51.169480,
    "longitude": 4.360510
  },
  {
    "id": 2,
    "name": "Groepspraktijk Ridderveld",
    "address": "Ridderveld 19, 2610 Wilrijk",
    "type": "Logopedie",
    "masterType": "Begeleiding",
    "icon": "Begeleiding",
    "latitude": 51.177056,
    "longitude": 4.374155
  },
  {
    "id": 3,
    "name": "Kinder- en jeugdpsycholoog Eva Springael",
    "address": "Kolonel Harrystraat 19, 2660 Hoboken",
    "type": "Kinder- en jeugdpsycholoog",
    "masterType": "Begeleiding",
    "icon": "Begeleiding",
    "latitude": 51.172328,
    "longitude": 4.371387
  },
  {
    "id": 4,
    "name": "Geefkast - DeGever",
    "address": "Leopoldlei 7, 2660 Hoboken",
    "type": "Geefkast",
    "masterType": "Geefwinkels & -kasten",
    "icon": "Gift",
    "latitude": 51.1789709,
    "longitude": 4.3574447
  },
  {
    "id": 5,
    "name": "GeefWinkel - DeGever",
    "address": "Groenstraat 11, 2610 Wilrijk",
    "type": "Geefwinkel",
    "masterType": "Geefwinkels & -kasten",
    "icon": "Gift",
    "latitude": 51.16331,
    "longitude": 4.358973
  },
  {
    "id": 6,
    "name": "Geefkast - Damplein",
    "address": "Damplein, 2000 Antwerpen",
    "type": "Geefkast",
    "masterType": "Geefwinkels & -kasten",
    "icon": "Gift",
    "latitude": 51.232403,
    "longitude": 4.424712
  },{
    "id": 7,
    "name": "The Comback",
    "address": "Turnhoutsebaan 98, 2140 Antwerpen",
    "type": "Geefkast",
    "masterType": "Geefwinkels & -kasten",
    "icon": "Gift",
    "latitude": 51.214096,
    "longitude":4.441548
  },
  {
    "id": 8,
    "name": "Wijkcentrum De Shelter",
    "address": "Langstraat 102, 2140 Antwerpen",
    "type": "Wijkcentrum",
    "masterType": "Hulpcentra",
    "icon": "Centra",
    "latitude": 51.212563,
    "longitude": 4.433633
  },
  {
    "id": 9,
    "name": "Sociaal centrum Hoboken en Kiel (OCMW)",
    "address": "Antwerpsesteenweg 167, 2660 Hoboken",
    "type": "OCMW",
    "masterType": "Hulpcentra",
    "icon": "Centra",
    "latitude": 51.179039,
    "longitude": 4.362102
  }
]


